USGS_gage,Long,Lat,HUC8,Watershed,Site_name,,,,,,,,,,
USGS-07268000,-89.2244444,34.4825,8030201,Little Tallahatchie,Little Tallahatchie River at Etta MS,,,,,,,,,,
USGS-07268500,-89.2902778,34.44194444,8030201,Little Tallahatchie,Cypress Creek near Etta MS ,,,,,,,,,,
USGS-07275530,-89.9819444,34.21388889,8030203,Yocona,Peters (Long) Creek near Pope MS ,,,,,,,,,,
USGS-07274252,-89.6525,34.14416667,8030203,Yocona,Otoucalofa Creek at Canal near Water Valley MS ,,,,,,,,,,
USGS-07275900,-89.7533333,34.9075,8030204,Coldwater,Coldwater River near Olive Branch MS ,,,,,,,,,,
USGS-07277000,-89.8224206,34.83031955,8030204,Coldwater,Pigeonroost Creek near Lewisburg MS ,,,,,,,,,,
USGS-07277700,-89.9244444,34.63194444,8030204,Coldwater,Hickahala Creek near Senatobia MS ,,,,,,,,,,
USGS-07277730,-89.9413889,34.61666667,8030204,Coldwater,Senatobia Creek near Senatobia MS ,,,,,,,,,,
USGS-07280270,-89.9534225,33.99455758,8030202,Tallahatchie,Tillatoba Creek below Oakland MS ,,,,,,,,,,
USGS-07280340,-89.9792558,33.97844676,8030202,Tallahatchie,South Fork Tillatoba Creek near Charleston MS ,,,,,,,,,,
USGS-07280400,-90.065,34,8030202,Tallahatchie,Tillatoba Creek at Charleston MS ,,,,,,,,,,
USGS-07282100,-89.3458333,33.8147222,8030205,Yalobusha,Topashaw Creek Canal near Calhoun City MS,,,,,,,,,,
USGS-07282500,-89.6150817,33.81622687,8030205,Yalobusha,Yalobusha River at Graysport MS,,,,,,,,,,
USGS-07283000,-89.3477778,33.9736111,8030205,Yalobusha,Skuna River at Bruce MS,,,,,,,,,,
USGS-07285400,-89.7875859,33.77400485,8030205,Yalobusha,Batupan Bogue at Grenada MS,,,,,,,,,,
USGS-07287355,-90.1961111,33.13805556,8030206,Upper Yazoo,Fannegusha Creek near Howard MS,,,,,,,,,,
USGS-07287150,-90.1513889,33.34,8030206,Upper Yazoo,Abiaca Creek near Seven Pines MS,,,,,,,,,,
USGS-07287160,-90.2372222,33.34166667,8030206,Upper Yazoo,Abiaca Creek at Cruger MS,,,,,,,,,,
USGS-07287400,-90.0533333,33.10527778,8030206,Upper Yazoo,Black Creek at Lexington MS,,,,,,,,,,
USGS-07287404,-90.1734194,33.10179419,8030206,Upper Yazoo,Harland Creek near Howard MS,,,,,,,,,,
USGS-07287405,-90.191197,33.1195715,8030206,Upper Yazoo,Black Creek at Howard MS,,,,,,,,,,
ARS-MSGC-MSGC04,-89.87370253,34.25774239,8030203,Yocona,MSGC04,,,,,,,,,,
ARS-MSGC-MSGC_WQ_2-13,-89.87346729,34.25983268,8030203,Yocona,MSGC_WQ_2-13,,,,,,,,,,
ARS-MSGC-MSGC_WQ_2-15,-89.8603065,34.26468286,8030203,Yocona,MSGC_WQ_2-15,,,,,,,,,,
ARS-MSGC-MSGC_WQ_2-5,-89.9093076,34.23662836,8030203,Yocona,MSGC_WQ_2-5,,,,,,,,,,
ARS-MSGC-MSGC_WQ_2-9,-89.89807384,34.25128702,8030203,Yocona,MSGC_WQ_2-9,,,,,,,,,,
NARS_WQX-OWW04440-0473,-89.478962,33.857712,8030205,Yalobusha,COLES CREEK,,,,,,,,,,
NARS_WQX-OWW04440-0985,-89.391517,34.858474,8030204,Coldwater,COLDWATER RIVER,,,,,,,,,,
USGS-07265500,-88.929228,34.555933,8030201,Little Tallahatchie,"LITTLE TALLAHATCHIE RIVER NR NEW ALBANY, MS.",,,,,,,,,,
USGS-07266000,-88.955617,34.405659,8030201,Little Tallahatchie,"CANE CREEK NR NEW ALBANY, MS",,,,,,,,,,
USGS-07266010,-88.996175,34.505935,8030201,Little Tallahatchie,"LITTLE TALLAHATCHIE RIVER AB NEW ALBANY, MS.",,,,,,,,,,
USGS-07266520,-89.013397,34.495102,8030201,Little Tallahatchie,"LITTLE TALLAHATCHIE RIVER AT NEW ALBANY, MS.",,,,,,,,,,
USGS-07266860,-89.056455,34.463713,8030201,Little Tallahatchie,"LITTLE TALLAHATCHIE RIVER NR INGOMAR, MS.",,,,,,,,,,
USGS-07268000,-89.224444,34.4825,8030201,Little Tallahatchie,"LITTLE TALLAHATCHIE RIVER AT ETTA, MS",,,,,,,,,,
USGS-07268200,-89.236183,34.472325,8030201,Little Tallahatchie,"FICE CREEK AT ETTA, MISS.",,,,,,,,,,
USGS-07268500,-89.290278,34.441944,8030201,Little Tallahatchie,"CYPRESS CREEK NR ETTA, MS",,,,,,,,,,
USGS-07268510,-89.332576,34.445104,8030201,Little Tallahatchie,"PUSKUS CREEK NR ETTA, MS",,,,,,,,,,
USGS-07268750,-89.317575,34.493992,8030201,Little Tallahatchie,"WOLF CREEK NEAR ETTA, MS.",,,,,,,,,,
USGS-07269000,-89.026111,34.733333,8030201,Little Tallahatchie,"NORTH TIPPAH CREEK NR RIPLEY, MS",,,,,,,,,,
USGS-07269400,-89.102568,34.751485,8030201,Little Tallahatchie,"SHELBY CREEK NEAR GRAVESTOWN, MS.",,,,,,,,,,
USGS-07269650,-89.11729,34.759818,8030201,Little Tallahatchie,"CURTIS CREEK NEAR ASHLAND, MS.",,,,,,,,,,
USGS-07269700,-89.146736,34.755929,8030201,Little Tallahatchie,"YELLOW RABBIT CREEK NEAR ASHLAND, MS.",,,,,,,,,,
USGS-07269790,-89.170348,34.756207,8030201,Little Tallahatchie,"RHODEN CREEK NEAR PINE GROVE, MS.",,,,,,,,,,
USGS-07269800,-89.180626,34.743707,8030201,Little Tallahatchie,"TIPPAH CREEK NR ASHLAND, MS.",,,,,,,,,,
USGS-07269815,-89.235072,34.723152,8030201,Little Tallahatchie,"SNOW CREEK NEAR PINE GROVE, MS.",,,,,,,,,,
USGS-07269850,-89.228128,34.707042,8030201,Little Tallahatchie,"CHILLI CREEK NEAR PINE GROVE, MS.",,,,,,,,,,
USGS-07269878,-89.150306,34.62275,8030201,Little Tallahatchie,"OAKLIMETER CREEK NEAR HICKORY FLAT, MS.",,,,,,,,,,
USGS-07269879,-89.230906,34.627321,8030201,Little Tallahatchie,"PECHAHALEE CREEK NEAR HICKORY FLAT, MS.",,,,,,,,,,
USGS-07269950,-89.345631,34.766763,8030201,Little Tallahatchie,"CHEWALLA CREEK NEAR HOLLY SPRINGS, MISS.",,,,,,,,,,
USGS-07269970,-89.331186,34.672598,8030201,Little Tallahatchie,"CHEWALLA C NR POTTS CAMP, MISS.",,,,,,,,,,
USGS-07269990,-89.350354,34.5976,8030201,Little Tallahatchie,"TIPPAH CREEK NEAR POTTS CAMP, MISS.",,,,,,,,,,
USGS-07270000,-89.333409,34.594545,8030201,Little Tallahatchie,"POTTS CREEK NR POTTS CAMP, MS.",,,,,,,,,,
USGS-07270200,-89.250351,34.525102,8030201,Little Tallahatchie,"MILLS CREEK NEAR CORNERSVILLE, MS.",,,,,,,,,,
USGS-07270500,-89.414801,34.505103,8030201,Little Tallahatchie,"BAGLEY CREEK NEAR ABBEVILLE, MISS.",,,,,,,,,,
USGS-07270520,-89.393966,34.710931,8030201,Little Tallahatchie,"BIG SPRING CREEK NEAR HOLLY SPRINGS, MISS.",,,,,,,,,,
USGS-07270600,-89.47508,34.575657,8030201,Little Tallahatchie,"LITTLE SPRING C AT MALONE, MISS.",,,,,,,,,,
USGS-07270800,-89.511748,34.446216,8030201,Little Tallahatchie,"HURRICANE CREEK NEAR OXFORD, MISS.",,,,,,,,,,
USGS-07271000,-89.658419,34.355662,8030201,Little Tallahatchie,"CLEAR CREEK NR OXFORD, MS",,,,,,,,,,
USGS-341828089102601,-89.173192,34.308539,8030201,Little Tallahatchie,A0046  PONTOTOC,,,,,,,,,,
USGS-341933088570201,-88.948972,34.325394,8030201,Little Tallahatchie,C0080  PONTOTOC,,,,,,,,,,
USGS-342050089384901,-89.646944,34.347222,8030201,Little Tallahatchie,E0116  LAFAYETTE,,,,,,,,,,
USGS-342111089124401,-89.220689,34.357639,8030201,Little Tallahatchie,A0048  PONTOTOC,,,,,,,,,,
USGS-342115089011501,-89.021292,34.355444,8030201,Little Tallahatchie,C0059  PONTOTOC,,,,,,,,,,
USGS-342204089323001,-89.537582,34.370106,8030201,Little Tallahatchie,F0085  LAFAYETTE,,,,,,,,,,
USGS-342434089012301,-89.018428,34.410225,8030201,Little Tallahatchie,M0031  UNION,,,,,,,,,,
USGS-342557089344201,-89.685972,34.520114,8030201,Little Tallahatchie,A0001  LAFAYETTE,,,,,,,,,,
USGS-342612089210501,-89.351465,34.436771,8030201,Little Tallahatchie,D0004  LAFAYETTE,,,,,,,,,,
USGS-342648088564801,-88.946547,34.444886,8030201,Little Tallahatchie,H0040  UNION,,,,,,,,,,
USGS-342730089300001,-89.502389,34.456761,8030201,Little Tallahatchie,B0002  LAFAYETTE,,,,,,,,,,
USGS-342802089493201,-89.823742,34.467072,8030201,Little Tallahatchie,H0001  PANOLA,,,,,,,,,,
USGS-342903088583801,-88.940742,34.486008,8030201,Little Tallahatchie,Well H0037  Union County MS,,,,,,,,,,
USGS-342921089341201,-89.569531,34.490028,8030201,Little Tallahatchie,A0029  LAFAYETTE,,,,,,,,,,
USGS-342926088562101,-88.939228,34.490657,8030201,Little Tallahatchie,H0029  UNION,,,,,,,,,,
USGS-342935089002101,-89.005897,34.493157,8030201,Little Tallahatchie,H0008  UNION,,,,,,,,,,
USGS-343000089032901,-89.058121,34.500102,8030201,Little Tallahatchie,G0024  UNION,,,,,,,,,,
USGS-343003089020001,-89.033398,34.500935,8030201,Little Tallahatchie,H0030  UNION,,,,,,,,,,
USGS-343053089024201,-89.045065,34.514823,8030201,Little Tallahatchie,B0004  UNION,,,,,,,,,,
USGS-343202088591301,-88.987008,34.53399,8030201,Little Tallahatchie,C0009  UNION,,,,,,,,,,
USGS-343217089005601,-89.01562,34.538156,8030201,Little Tallahatchie,C0001  UNION,,,,,,,,,,
USGS-343320088585501,-88.981689,34.555983,8030201,Little Tallahatchie,C0015  UNION,,,,,,,,,,
USGS-343330089065501,-89.115346,34.558434,8030201,Little Tallahatchie,B0017  UNION,,,,,,,,,,
USGS-343349089180601,-89.301417,34.563833,8030201,Little Tallahatchie,Y0035  MARSHALL,,,,,,,,,,
USGS-343704089111201,-89.187025,34.617414,8030201,Little Tallahatchie,O0034  BENTON,,,,,,,,,,
USGS-343706089111601,-89.187153,34.618106,8030201,Little Tallahatchie,O0041  BENTON,,,,,,,,,,
USGS-343957089274901,-89.46369,34.665933,8030201,Little Tallahatchie,S0036  MARSHALL,,,,,,,,,,
USGS-344016089014401,-89.0279,34.67345,8030201,Little Tallahatchie,N0012  TIPPAH,,,,,,,,,,
USGS-344120089215901,-89.366465,34.688987,8030201,Little Tallahatchie,P0065  MARSHALL,,,,,,,,,,
USGS-344343089111501,-89.187778,34.728611,8030201,Little Tallahatchie,L0043  BENTON,,,,,,,,,,
USGS-344437089113201,-89.192293,34.743707,8030201,Little Tallahatchie,L0004  BENTON,,,,,,,,,,
USGS-344524088562301,-88.939785,34.756762,8030201,Little Tallahatchie,J0043  TIPPAH,,,,,,,,,,
USGS-344740089131001,-89.219516,34.79454,8030201,Little Tallahatchie,H0039  BENTON,,,,,,,,,,
USGS-344845089183601,-89.302319,34.648194,8030201,Little Tallahatchie,U0001  MARSHALL,,,,,,,,,,
21MSWQ_WQX-07268000,-89.224333,34.482333,8030201,Little Tallahatchie,LITTLE TALLAHATCHIE RIVER,,,,,,,,,,
21MSWQ_WQX-111F06,-89.474856,34.577168,8030201,Little Tallahatchie,LITTLE SPRING CREEK,,,,,,,,,,
21MSWQ_WQX-112A21,-89.30753,34.640739,8030201,Little Tallahatchie,OAKLIMETER CREEK,,,,,,,,,,
21MSWQ_WQX-112B44,-89.064278,34.726047,8030201,Little Tallahatchie,TIPPAH RIVER,,,,,,,,,,
21MSWQ_WQX-112B80,-89.021825,34.738774,8030201,Little Tallahatchie,NORTH TIPPAH CREEK,,,,,,,,,,
21MSWQ_WQX-112C93,-88.998234,34.389046,8030201,Little Tallahatchie,SAND CREEK,,,,,,,,,,
21MSWQ_WQX-113A45,-89.03217,34.70914,8030201,Little Tallahatchie,SOUTH TIPPAH CREEK,,,,,,,,,,
21MSWQ_WQX-113A46,-88.991115,34.754277,8030201,Little Tallahatchie,MEDLOCK BRANCH,,,,,,,,,,
21MSWQ_WQX-113B66,-89.00271,34.77309,8030201,Little Tallahatchie,NORTH TIPPAH CREEK,,,,,,,,,,
21MSWQ_WQX-48,-89.201056,34.484639,8030201,Little Tallahatchie,MITCHELL CREEK,,,,,,,,,,
21MSWQ_WQX-TB639,-89.008167,34.288056,8030201,Little Tallahatchie,LYON CREEK,,,,,,,,,,
21MSWQ_WQX-YZ018,-89.717778,34.508333,8030201,Little Tallahatchie,GREASY CREEK,,,,,,,,,,
21MSWQ_WQX-YZ025,-89.490583,34.501444,8030201,Little Tallahatchie,GRAHAM MILL CREEK,,,,,,,,,,
21MSWQ_WQX-YZ026,-89.488861,34.512083,8030201,Little Tallahatchie,LEE CREEK,,,,,,,,,,
21MSWQ_WQX-YZ028,-89.136861,34.469,8030201,Little Tallahatchie,LOCKES CREEK,,,,,,,,,,
21MSWQ_WQX-YZ029,-89.186111,34.429861,8030201,Little Tallahatchie,LITTLE TALLAHATCHIE RIVER,,,,,,,,,,
21MSWQ_WQX-YZ030,-89.579,34.4025,8030201,Little Tallahatchie,BERRY BRANCH,,,,,,,,,,
21MSWQ_WQX-YZ031,-89.543556,34.457944,8030201,Little Tallahatchie,HURRICANE CREEK,,,,,,,,,,
21MSWQ_WQX-YZ032,-89.376139,34.408611,8030201,Little Tallahatchie,PUSKUS CREEK,,,,,,,,,,
21MSWQ_WQX-YZ033,-89.262972,34.475778,8030201,Little Tallahatchie,CYPRESS CREEK,,,,,,,,,,
21MSWQ_WQX-YZ034,-89.221944,34.480639,8030201,Little Tallahatchie,LITTLE TALLAHATCHIE RIVER,,,,,,,,,,
21MSWQ_WQX-YZ037,-88.893611,34.577667,8030201,Little Tallahatchie,LITTLE TALLAHATCHIE RIVER,,,,,,,,,,
21MSWQ_WQX-YZ038,-89.6565,34.35325,8030201,Little Tallahatchie,CLEAR CREEK,,,,,,,,,,
21MSWQ_WQX-YZ039,-89.676806,34.356194,8030201,Little Tallahatchie,HUDSON CREEK,,,,,,,,,,
21MSWQ_WQX-YZ040,-88.975111,34.523083,8030201,Little Tallahatchie,CANE CREEK,,,,,,,,,,
21MSWQ_WQX-YZ057,-89.098222,34.383222,8030201,Little Tallahatchie,LAPPATUBBY CREEK,,,,,,,,,,
21MSWQ_WQX-YZ061,-89.151889,34.337833,8030201,Little Tallahatchie,DUNCANS CREEK,,,,,,,,,,
21MSWQ_WQX-YZ064,-89.236556,34.328583,8030201,Little Tallahatchie,DUNCANS CREEK,,,,,,,,,,
21MSWQ_WQX-YZ119,-89.249361,34.525472,8030201,Little Tallahatchie,MILL CREEK,,,,,,,,,,
21MSWQ_WQX-YZ155,-89.65841,34.35526,8030201,Little Tallahatchie,CLEAR CREEK,,,,,,,,,,
21MSWQ_WQX-YZ156,-89.67756,34.35364,8030201,Little Tallahatchie,HUDSON CREEK,,,,,,,,,,
21MSWQ_WQX-YZ221,-89.019583,34.338639,8030201,Little Tallahatchie,CHERRY CREEK,,,,,,,,,,
21MSWQ_WQX-YZ391,-89.613639,34.570361,8030201,Little Tallahatchie,BLACKWATER CREEK,,,,,,,,,,
21MSWQ_WQX-YZ392,-89.759194,34.489139,8030201,Little Tallahatchie,NELSON CREEK,,,,,,,,,,
21MSWQ_WQX-YZ393,-89.742,34.499833,8030201,Little Tallahatchie,HOKE CREEK,,,,,,,,,,
21MSWQ_WQX-YZ407,-89.053917,34.465306,8030201,Little Tallahatchie,LITTLE TALLAHATCHIE RIVER,,,,,,,,,,
21MSWQ_WQX-YZ408,-89.00227,34.51916,8030201,Little Tallahatchie,JASPER CREEK,,,,,,,,,,
21MSWQ_WQX-YZ409,-89.010861,34.596611,8030201,Little Tallahatchie,JASPER CREEK,,,,,,,,,,
21MSWQ_WQX-YZ410,-88.995167,34.506139,8030201,Little Tallahatchie,LITTLE TALLAHATCHIE RIVER,,,,,,,,,,
21MSWQ_WQX-YZ606,-89.239694,34.8185,8030201,Little Tallahatchie,SNOW LAKE,,,,,,,,,,
21MSWQ_WQX-YZ612,-89.336278,34.732,8030201,Little Tallahatchie,CHEWALLA LAKE,,,,,,,,,,
USGS-07273660,-89.26285,34.208997,8030203,Yocona,"COON CREEK NR TOCCOPOLA, MS",,,,,,,,,,
USGS-07273690,-89.294241,34.233997,8030203,Yocona,"MUCKALOON CREEK NR TULA, MS",,,,,,,,,,
USGS-07273850,-89.3948,34.221219,8030203,Yocona,"POTLOCKNEY CREEK NR TULA, MS",,,,,,,,,,
USGS-07273950,-89.445079,34.288441,8030203,Yocona,"PUMPKIN CREEK NR DENMARK, MS",,,,,,,,,,
USGS-07274000,-89.521389,34.273333,8030203,Yocona,"YOCONA RIVER NR OXFORD, MS",,,,,,,,,,
USGS-07274235,-89.438968,34.148998,8030203,Yocona,"OTOUCALOFA CREEK NR PARIS, MS",,,,,,,,,,
USGS-07274237,-89.456746,34.169832,8030203,Yocona,"OTOUCALOFA CREEK AT PARIS, MS",,,,,,,,,,
USGS-07274245,-89.53286,34.158443,8030203,Yocona,"OTOUCALOFA CREEK EAST OF WATER VALLEY, MS",,,,,,,,,,
USGS-07274247,-89.593417,34.130388,8030203,Yocona,"OTOUCALOFA CREEK CANAL E-SE OF WATER VALLEY, MS",,,,,,,,,,
USGS-07274248,-89.623418,34.133444,8030203,Yocona,"OTOUCALOFA CREEK CANAL SE OF WATER VALLEY, MS.",,,,,,,,,,
USGS-07274250,-89.637585,34.140666,8030203,Yocona,"OTOUCALOFA CREEK AT WATER VALLEY, MS",,,,,,,,,,
USGS-07274251,-89.633333,34.1475,8030203,Yocona,"TOWN CREEK AT WATER VALLEY, MS",,,,,,,,,,
USGS-07274252,-89.6525,34.144167,8030203,Yocona,"OTOUCALOFA CREEK CANAL NR WATER VALLEY, MS",,,,,,,,,,
USGS-07274270,-89.696475,34.163165,8030203,Yocona,"OTOUCALOFA CREEK CANAL WEST OF WATER VALLEY, MS.",,,,,,,,,,
USGS-340609089391501,-89.654167,34.1025,8030203,Yocona,C0084  YALOBUSHA,,,,,,,,,,
USGS-340800089374101,-89.628056,34.133333,8030203,Yocona,C0089  YALOBUSHA,,,,,,,,,,
USGS-340832089384101,-89.644807,34.142332,8030203,Yocona,C0078  YALOBUSHA,,,,,,,,,,
USGS-340843089385201,-89.647863,34.145388,8030203,Yocona,C0077  YALOBUSHA,,,,,,,,,,
USGS-340844089382301,-89.639807,34.145666,8030203,Yocona,C0080  YALOBUSHA,,,,,,,,,,
USGS-340850089384401,-89.645641,34.147332,8030203,Yocona,C0076  YALOBUSHA,,,,,,,,,,
USGS-340851089382501,-89.640363,34.14761,8030203,Yocona,C0081  YALOBUSHA,,,,,,,,,,
USGS-340859089374204,-89.628418,34.161221,8030203,Yocona,C0004  YALOBUSHA,,,,,,,,,,
USGS-341100089100301,-89.170497,34.183189,8030203,Yocona,E0007  PONTOTOC,,,,,,,,,,
USGS-341144089384801,-89.646994,34.189078,8030203,Yocona,C0063  YALOBUSHA,,,,,,,,,,
USGS-341502089312101,-89.522582,34.250664,8030203,Yocona,K0021  LAFAYETTE,,,,,,,,,,
USGS-341648089245901,-89.414503,34.279611,8030203,Yocona,L0005  LAFAYETTE,,,,,,,,,,
USGS-341803089375701,-89.585917,34.268997,8030203,Yocona,J0002  LAFAYETTE,,,,,,,,,,
USGS-341820089164001,-89.277053,34.306278,8030203,Yocona,M0004  LAFAYETTE,,,,,,,,,,
USGS-341859089215001,-89.362472,34.3158,8030203,Yocona,L0013  LAFAYETTE,,,,,,,,,,
USGS-342015089253501,-89.427122,34.342186,8030203,Yocona,G0011  LAFAYETTE,,,,,,,,,,
USGS-342100089293501,-89.494544,34.345214,8030203,Yocona,F0041  LAFAYETTE,,,,,,,,,,
USGS-342123089320201,-89.533971,34.356495,8030203,Yocona,F0107  LAFAYETTE,,,,,,,,,,
USGS-342142089315402,-89.531749,34.361773,8030203,Yocona,F0044  LAFAYETTE,,,,,,,,,,
USGS-342155089305401,-89.514556,34.364878,8030203,Yocona,F0023  LAFAYETTE,,,,,,,,,,
USGS-342215089305001,-89.51397,34.370939,8030203,Yocona,F0026  LAFAYETTE,,,,,,,,,,
21MSWQ_WQX-112G38,-89.580542,34.266937,8030203,Yocona,TAYLOR CREEK,,,,,,,,,,
21MSWQ_WQX-112G39,-89.538297,34.270926,8030203,Yocona,MORRIS CREEK,,,,,,,,,,
21MSWQ_WQX-A0710016,-89.477806,34.3235,8030203,Yocona,FOURMILE BRANCH,,,,,,,,,,
21MSWQ_WQX-YZ045,-89.73925,34.227667,8030203,Yocona,BYNUM CREEK,,,,,,,,,,
21MSWQ_WQX-YZ062,-89.507889,34.288556,8030203,Yocona,BURNEY BRANCH,,,,,,,,,,
21MSWQ_WQX-YZ227,-89.635944,34.236722,8030203,Yocona,SPLINTER CREEK,,,,,,,,,,
21MSWQ_WQX-YZ241,-89.680167,34.235583,8030203,Yocona,DAVIS CREEK,,,,,,,,,,
21MSWQ_WQX-YZ394,-89.550528,34.251333,8030203,Yocona,COURTNEY CREEK,,,,,,,,,,
21MSWQ_WQX-YZ395,-89.566333,34.241639,8030203,Yocona,HUMPHREYS CREEK,,,,,,,,,,
USGS-07275700,-89.494801,34.875095,8030204,Coldwater,"COLDWATER RIVER NEAR RED BANKS, MISS.",,,,,,,,,,
USGS-07275900,-89.753333,34.9075,8030204,Coldwater,"COLDWATER RIVER NR OLIVE BRANCH, MS",,,,,,,,,,
USGS-07276500,-89.686196,34.759821,8030204,Coldwater,"PIGEON ROOST CREEK NR BYHALIA, MS.",,,,,,,,,,
USGS-07277000,-89.822421,34.83032,8030204,Coldwater,"PIGEONROOST CREEK NR LEWISBURG, MS",,,,,,,,,,
USGS-07277200,-89.879255,34.86343,8030204,Coldwater,"CAMP CREEK CANAL NEAR LEWISBURG,MISS",,,,,,,,,,
USGS-07277520,-89.757587,34.675101,8030204,Coldwater,"HICKAHALA CREEK NR INDEPENDENCE, MS",,,,,,,,,,
USGS-07277530,-89.810921,34.641491,8030204,Coldwater,"HICKAHALA CREEK NR LOOXAHOMA, MS",,,,,,,,,,
USGS-07277548,-89.821477,34.616769,8030204,Coldwater,"JAMES WOLF CREEK NR LOOXAHOMA, MS",,,,,,,,,,
USGS-07277700,-89.924444,34.631944,8030204,Coldwater,"HICKAHALA CREEK NR SENATOBIA, MS",,,,,,,,,,
USGS-07277715,-89.880366,34.550382,8030204,Coldwater,"SENATOBIA CREEK NR COMO, MS",,,,,,,,,,
USGS-07277730,-89.941389,34.616667,8030204,Coldwater,"SENATOBIA CREEK NR SENATOBIA, MS",,,,,,,,,,
USGS-07277755,-89.955923,34.637603,8030204,Coldwater,"HICKAHALA CREEK AT SENATOBIA, MS",,,,,,,,,,
USGS-07277760,-89.973423,34.654547,8030204,Coldwater,"HICKAHALA CREEK NR COLDWATER, MS",,,,,,,,,,
USGS-07277770,-90.003146,34.68788,8030204,Coldwater,"HICKAHALA CREEK AT COLDWATER, MS",,,,,,,,,,
USGS-07279100,-90.130649,34.913429,8030204,Coldwater,"JOHNSON CREEK NEAR WALLS, MISS.",,,,,,,,,,
USGS-343003089561701,-89.937544,34.502203,8030204,Coldwater,G0028  PANOLA,,,,,,,,,,
USGS-343044089561601,-89.940089,34.511216,8030204,Coldwater,C0006  PANOLA,,,,,,,,,,
USGS-343420089561002,-89.932736,34.566383,8030204,Coldwater,M0024  TATE,,,,,,,,,,
USGS-343520089501001,-89.837278,34.604811,8030204,Coldwater,H0091  TATE,,,,,,,,,,
USGS-343702089572301,-89.955633,34.6162,8030204,Coldwater,G0061  TATE,,,,,,,,,,
USGS-343729089574801,-89.963423,34.624825,8030204,Coldwater,G0010  TATE,,,,,,,,,,
USGS-343814089580601,-89.955658,34.614642,8030204,Coldwater,G0062  TATE,,,,,,,,,,
USGS-343842089531701,-89.888056,34.645,8030204,Coldwater,G0147  TATE,,,,,,,,,,
USGS-344118089582901,-89.974756,34.688233,8030204,Coldwater,B0006  TATE,,,,,,,,,,
USGS-344129089581501,-89.974894,34.688597,8030204,Coldwater,B0002  TATE,,,,,,,,,,
USGS-344213089361001,-89.602861,34.70371,8030204,Coldwater,N0027  MARSHALL,,,,,,,,,,
USGS-344614089264701,-89.446583,34.769808,8030204,Coldwater,P0078  MARSHALL,,,,,,,,,,
USGS-344720089590501,-89.984361,34.78925,8030204,Coldwater,L0014  DESOTO,,,,,,,,,,
USGS-344806089581801,-89.971757,34.801765,8030204,Coldwater,L0055  DESOTO,,,,,,,,,,
USGS-344927089583901,-89.97759,34.824265,8030204,Coldwater,L0085  DESOTO,,,,,,,,,,
USGS-344939089460401,-89.767778,34.8275,8030204,Coldwater,M0226  DESOTO,,,,,,,,,,
USGS-344940089585001,-89.978233,34.826892,8030204,Coldwater,L0005  DESOTO,,,,,,,,,,
USGS-345057089214801,-89.363333,34.849167,8030204,Coldwater,L0052  MARSHALL,,,,,,,,,,
USGS-345125089400201,-89.667222,34.856944,8030204,Coldwater,J0326  MARSHALL,,,,,,,,,,
USGS-345215089552801,-89.919811,34.87093,8030204,Coldwater,G0020  DESOTO,,,,,,,,,,
USGS-345216089400201,-89.697583,34.873528,8030204,Coldwater,D0060  MARSHALL,,,,,,,,,,
USGS-345220089462301,-89.687933,34.871894,8030204,Coldwater,D0005  MARSHALL,,,,,,,,,,
USGS-345341089502201,-89.830921,34.900651,8030204,Coldwater,H0068  DESOTO,,,,,,,,,,
USGS-345352090044301,-90.079211,34.900617,8030204,Coldwater,F0081  DESOTO,,,,,,,,,,
USGS-345439089595501,-89.998702,34.910929,8030204,Coldwater,F0018  DESOTO,,,,,,,,,,
USGS-345559089473501,-89.793142,34.93315,8030204,Coldwater,H0073  DESOTO,,,,,,,,,,
USGS-345631089541701,-89.901755,34.94315,8030204,Coldwater,G0019  DESOTO,,,,,,,,,,
USGS-345720089503001,-89.837197,34.952422,8030204,Coldwater,D0015  DESOTO,,,,,,,,,,
USGS-345722090060801,-90.102315,34.956206,8030204,Coldwater,A0013  DESOTO,,,,,,,,,,
USGS-345725089493001,-89.825087,34.957038,8030204,Coldwater,D0059  DESOTO,,,,,,,,,,
USGS-345725090071001,-90.119538,34.957039,8030204,Coldwater,A0008  DESOTO,,,,,,,,,,
USGS-345726089492901,-89.822865,34.956205,8030204,Coldwater,D0002  DESOTO,,,,,,,,,,
USGS-345729090043001,-90.071203,34.95565,8030204,Coldwater,B0011  DESOTO,,,,,,,,,,
21MSWQ_WQX-111C92,-89.89655,34.79546,8030204,Coldwater,SHORT FORK CREEK,,,,,,,,,,
21MSWQ_WQX-YZ007,-89.870417,34.921306,8030204,Coldwater,CAMP CREEK CANAL,,,,,,,,,,
21MSWQ_WQX-YZ010,-89.75774,34.80154,8030204,Coldwater,RED BANKS CREEK,,,,,,,,,,
21MSWQ_WQX-YZ015,-89.923083,34.632111,8030204,Coldwater,HICKAHALA CREEK,,,,,,,,,,
21MSWQ_WQX-YZ016,-89.819056,34.614139,8030204,Coldwater,JAMES WOLF CANAL,,,,,,,,,,
21MSWQ_WQX-YZ225,-90.021806,34.788889,8030204,Coldwater,MUSSACUNA CREEK,,,,,,,,,,
21MSWQ_WQX-YZ448,-89.809667,34.641417,8030204,Coldwater,HICKAHALA CREEK,,,,,,,,,,
NARS-OWW04440-0985,-89.39,34.85,8030204,Coldwater,Coldwater River,,,,,,,,,,
NARS_WQX-OWW04440-0985,-89.391517,34.858474,8030204,Coldwater,COLDWATER RIVER,,,,,,,,,,
USGS-07280250,-89.865089,34.026501,8030202,Tallahatchie,"TILLATOBA CREEK SOUTHEAST OF OAKLAND, MISS.",,,,,,,,,,
USGS-07280264,-89.916756,34.017891,8030202,Tallahatchie,"TILLATOBA CREEK NEAR TILLATOBA, MISS.",,,,,,,,,,
USGS-07280270,-89.953423,33.994558,8030202,Tallahatchie,"TILLATOBA CREEK BL OAKLAND, MS",,,,,,,,,,
USGS-07280272,-89.978978,33.997058,8030202,Tallahatchie,"TILLATOBA CREEK EAST OF CHARLESTON, MS.",,,,,,,,,,
USGS-07280275,-89.880088,33.933447,8030202,Tallahatchie,"DAVIS CREEK NEAR SCOBEY, MISS.",,,,,,,,,,
USGS-07280280,-89.920088,33.924003,8030202,Tallahatchie,"DAVIS CREEK NEAR TILLATOBA, MISS.",,,,,,,,,,
USGS-07280285,-89.944533,33.932058,8030202,Tallahatchie,"SOUTH FORK TILLATOBA CREEK SW OF TILLATOBA, MISS",,,,,,,,,,
USGS-07280290,-89.865088,33.975113,8030202,Tallahatchie,"SIMMONS CREEK NEAR TILLATOBA, MISS.",,,,,,,,,,
USGS-07280295,-89.902589,33.968169,8030202,Tallahatchie,"SIMMONS CREEK AT TILLATOBA, MISS.",,,,,,,,,,
USGS-07280330,-89.960089,33.959836,8030202,Tallahatchie,"SOUTH FORK TILLATOBA CREEK NEAR TILLATOBA, MISS.",,,,,,,,,,
USGS-07280340,-89.979256,33.978447,8030202,Tallahatchie,"SOUTH FORK TILLATOBA CREEK NR CHARLESTON, MS",,,,,,,,,,
USGS-07280365,-89.993978,33.989558,8030202,Tallahatchie,"TILLATOBA CREEK NR CHARLESTON, MISS.",,,,,,,,,,
USGS-07280400,-90.065,34,8030202,Tallahatchie,"TILLATOBA CREEK AT CHARLESTON, MS",,,,,,,,,,
USGS-335620089520001,-89.868144,33.940391,8030202,Tallahatchie,J0004  YALOBUSHA,,,,,,,,,,
USGS-340027090030301,-90.050923,34.007613,8030202,Tallahatchie,F0025  TALLAHATCHIE,,,,,,,,,,
USGS-340031090030201,-90.050344,34.007997,8030202,Tallahatchie,F0045  TALLAHATCHIE,,,,,,,,,,
USGS-340050090033001,-90.058578,34.013942,8030202,Tallahatchie,F0024  TALLAHATCHIE,,,,,,,,,,
USGS-340132089571701,-89.954503,34.025167,8030202,Tallahatchie,G0001  TALLAHATCHIE,,,,,,,,,,
USGS-340143089542201,-89.907867,34.03039,8030202,Tallahatchie,E0003  YALOBUSHA,,,,,,,,,,
USGS-340159089552801,-89.924444,34.033056,8030202,Tallahatchie,E0063  YALOBUSHA,,,,,,,,,,
USGS-340231089550201,-89.917833,34.041533,8030202,Tallahatchie,E0037  YALOBUSHA,,,,,,,,,,
USGS-340304089544602,-89.917589,34.057057,8030202,Tallahatchie,E0002  YALOBUSHA,,,,,,,,,,
21MSWQ_WQX-112B40,-89.951891,33.994256,8030202,Tallahatchie,TILLATOBA CREEK,,,,,,,,,,
21MSWQ_WQX-YZ049,-90.051972,34.036833,8030202,Tallahatchie,NORTH FORK TILLATOBA CREEK,,,,,,,,,,
USGS-07281960,-89.173056,33.866111,8030205,Yalobusha,"YALOBUSHA RIVER AT VARDAMAN, MS",,,,,,,,,,
USGS-07281975,-89.252293,33.861224,8030205,Yalobusha,"DUNCAN CREEK NR DERMA, MS",,,,,,,,,,
USGS-07281977,-89.275833,33.838056,8030205,Yalobusha,"YALOBUSHA RIVER AT DERMA, MS",,,,,,,,,,
USGS-07281991,-89.301739,33.886224,8030205,Yalobusha,"HUFFMAN CREEK NR CALHOUN CITY, MS",,,,,,,,,,
USGS-07281999,-89.315556,33.838611,8030205,Yalobusha,"YALOBUSHA RIVER AT CALHOUN CITY, MS",,,,,,,,,,
USGS-07282015,-89.38063,33.847614,8030205,Yalobusha,"BIG CREEK NR BIG CREEK, MS",,,,,,,,,,
USGS-07282075,-89.178611,33.758056,8030205,Yalobusha,"TOPASHAW CREEK CANAL NR HOHENLINDEN, MS",,,,,,,,,,
USGS-07282090,-89.246944,33.78,8030205,Yalobusha,"TOPASHAW CREEK CANAL NR DERMA, MS",,,,,,,,,,
USGS-07282097,-89.250903,33.786226,8030205,Yalobusha,"BEAR CREEK CANAL NR DERMA, MS",,,,,,,,,,
USGS-07282100,-89.345833,33.814722,8030205,Yalobusha,"TOPASHAW CREEK CANAL NR CALHOUN CITY, MS",,,,,,,,,,
USGS-07282198,-89.350072,33.761227,8030205,Yalobusha,"SHUTISPEAR CREEK NE OF SLATE SPRINGS, MS",,,,,,,,,,
USGS-07282210,-89.430632,33.834837,8030205,Yalobusha,"SAVANNAH CREEK AT BIG CREEK, MS",,,,,,,,,,
USGS-07282240,-89.363683,33.689007,8030205,Yalobusha,"SABOUGLA CREEK NR SLATE SPRINGS, MS",,,,,,,,,,
USGS-07282250,-89.398129,33.678452,8030205,Yalobusha,"PRYOR CREEK NR CADARETTA, MS",,,,,,,,,,
USGS-07282320,-89.497855,33.72234,8030205,Yalobusha,"HORSE PEN CREEK NR CADARETTA, MS",,,,,,,,,,
USGS-07282898,-89.265073,34.088442,8030205,Yalobusha,"MCGILL CREEK NR SAREPTA, MS",,,,,,,,,,
USGS-07282904,-89.272295,34.047332,8030205,Yalobusha,"SAVANNAH CREEK NR BRUCE, MS",,,,,,,,,,
USGS-07282980,-89.317852,34.006777,8030205,Yalobusha,"COWPEN CANAL NR BRUCE, MS",,,,,,,,,,
USGS-07283000,-89.347778,33.973611,8030205,Yalobusha,"SKUNA RIVER AT BRUCE, MS",,,,,,,,,,
USGS-07283010,-89.368965,33.987611,8030205,Yalobusha,"YODA CREEK AT BRUCE, MS",,,,,,,,,,
USGS-07283200,-89.414522,34.027889,8030205,Yalobusha,"BRUSHY CREEK NR BRUCE, MS",,,,,,,,,,
USGS-07283208,-89.433689,34.034,8030205,Yalobusha,"PERSIMMON CREEK NR BRUCE, MS",,,,,,,,,,
USGS-07283465,-89.522302,33.937614,8030205,Yalobusha,"UNNAMED CREEK NR BENWOOD, MS",,,,,,,,,,
USGS-07283478,-89.596749,33.926503,8030205,Yalobusha,"YORK CREEK NR COFFEEVILLE, MS",,,,,,,,,,
USGS-07283720,-89.607861,34.013723,8030205,Yalobusha,"TURKEY CREEK NR VELMA, MS",,,,,,,,,,
USGS-07283725,-89.582027,34.022612,8030205,Yalobusha,"HURRICANE CREEK NR VELMA, MS",,,,,,,,,,
USGS-07283800,-89.664252,33.967891,8030205,Yalobusha,"TURKEY C. AT COFFEEVILLE, MISS.",,,,,,,,,,
USGS-07285400,-89.787586,33.774005,8030205,Yalobusha,"BATUPAN BOGUE AT GRENADA, MS",,,,,,,,,,
USGS-07285500,-89.809722,33.787778,8030205,Yalobusha,"YALOBUSHA RIVER AT GRENADA, MS",,,,,,,,,,
USGS-333048089554802,-89.921056,33.513008,8030205,Yalobusha,F0059  CARROLL,,,,,,,,,,
USGS-333058089552001,-89.922305,33.516233,8030205,Yalobusha,F0023  CARROLL,,,,,,,,,,
USGS-333104089542002,-89.907658,33.518881,8030205,Yalobusha,F0026  CARROLL,,,,,,,,,,
USGS-333116089550401,-89.918972,33.520122,8030205,Yalobusha,F0001  CARROLL,,,,,,,,,,
USGS-333136089493901,-89.827583,33.510122,8030205,Yalobusha,F0022  CARROLL,,,,,,,,,,
USGS-333620089585101,-89.980918,33.605675,8030205,Yalobusha,B0010  CARROLL,,,,,,,,,,
USGS-333627089420001,-89.698803,33.597714,8030205,Yalobusha,D0009  MONTGOMERY,,,,,,,,,,
USGS-333715089592401,-89.990085,33.620952,8030205,Yalobusha,B0007  CARROLL,,,,,,,,,,
USGS-333731089422201,-89.706944,33.625994,8030205,Yalobusha,D0013  MONTGOMERY,,,,,,,,,,
USGS-333740089582001,-90.008418,33.614008,8030205,Yalobusha,B0045  CARROLL,,,,,,,,,,
USGS-333754089424901,-89.711561,33.630944,8030205,Yalobusha,D0026  MONTGOMERY,,,,,,,,,,
USGS-333806089425501,-89.715361,33.63512,8030205,Yalobusha,A0016  MONTGOMERY,,,,,,,,,,
USGS-333953089510201,-89.85064,33.66484,8030205,Yalobusha,C0029  CARROLL,,,,,,,,,,
USGS-334034089193301,-89.325904,33.676229,8030205,Yalobusha,B0001  WEBSTER,,,,,,,,,,
USGS-334038089440701,-89.751333,33.690917,8030205,Yalobusha,H0122  GRENADA,,,,,,,,,,
USGS-334039089363401,-89.609444,33.6775,8030205,Yalobusha,B0015  MONTGOMERY,,,,,,,,,,
USGS-334135089594501,-89.995919,33.693173,8030205,Yalobusha,F0004  GRENADA,,,,,,,,,,
USGS-334152089555801,-89.949264,33.701486,8030205,Yalobusha,F0005a  GRENADA,,,,,,,,,,
USGS-334152089555802,-89.932863,33.697895,8030205,Yalobusha,F0005b GRENADA,,,,,,,,,,
USGS-334218089263001,-89.440981,33.7047,8030205,Yalobusha,A0010  WEBSTER,,,,,,,,,,
USGS-334406089381601,-89.637778,33.735,8030205,Yalobusha,J0083  GRENADA,,,,,,,,,,
USGS-334417089221101,-89.371106,33.738692,8030205,Yalobusha,N0028  CALHOUN,,,,,,,,,,
USGS-334430089481501,-89.804252,33.741783,8030205,Yalobusha,H0053  GRENADA,,,,,,,,,,
USGS-334448089130101,-89.220624,33.741505,8030205,Yalobusha,O0008  CALHOUN,,,,,,,,,,
USGS-334503089081501,-89.137565,33.75095,8030205,Yalobusha,N0026  CHICKASAW,,,,,,,,,,
USGS-334533089373301,-89.625122,33.755047,8030205,Yalobusha,J0016  GRENADA,,,,,,,,,,
USGS-334607089473801,-89.800069,33.779056,8030205,Yalobusha,H0088  GRENADA,,,,,,,,,,
USGS-334613089425201,-89.714444,33.770278,8030205,Yalobusha,J0082  GRENADA,,,,,,,,,,
USGS-334615089431001,-89.719529,33.77095,8030205,Yalobusha,H0075  GRENADA,,,,,,,,,,
USGS-334626089081001,-89.136086,33.773564,8030205,Yalobusha,N0027  CHICKASAW,,,,,,,,,,
USGS-334639089480001,-89.800086,33.777616,8030205,Yalobusha,H0009  GRENADA,,,,,,,,,,
USGS-334639089480003,-89.800086,33.779005,8030205,Yalobusha,H0012  GRENADA,,,,,,,,,,
USGS-334643089480001,-89.798989,33.778461,8030205,Yalobusha,H0010  GRENADA,,,,,,,,,,
USGS-334644089480201,-89.799194,33.779097,8030205,Yalobusha,H0013  GRENADA,,,,,,,,,,
USGS-334646089115201,-89.197845,33.778726,8030205,Yalobusha,O0001  CALHOUN,,,,,,,,,,
USGS-334711089482901,-89.808142,33.786505,8030205,Yalobusha,H0002  GRENADA,,,,,,,,,,
USGS-334723089195801,-89.332558,33.789975,8030205,Yalobusha,N0029  CALHOUN,,,,,,,,,,
USGS-334747089145002,-89.247292,33.796504,8030205,Yalobusha,O0006  CALHOUN,,,,,,,,,,
USGS-334909089184801,-89.313405,33.819281,8030205,Yalobusha,K0007  CALHOUN,,,,,,,,,,
USGS-334959089064501,-89.112565,33.83317,8030205,Yalobusha,J0018  CHICKASAW,,,,,,,,,,
USGS-335032089113101,-89.189706,33.8408,8030205,Yalobusha,L0008  CALHOUN,,,,,,,,,,
USGS-335116089244701,-89.412444,33.853317,8030205,Yalobusha,J0001  CALHOUN,,,,,,,,,,
USGS-335118089175901,-89.307628,33.856842,8030205,Yalobusha,K0101  CALHOUN,,,,,,,,,,
USGS-335118089190201,-89.317295,33.855114,8030205,Yalobusha,K0001  CALHOUN,,,,,,,,,,
USGS-335125089201501,-89.288405,33.857058,8030205,Yalobusha,K0003  CALHOUN,,,,,,,,,,
USGS-335227089111201,-89.176097,33.876478,8030205,Yalobusha,L0004  CALHOUN,,,,,,,,,,
USGS-335235089155101,-89.265044,33.8754,8030205,Yalobusha,K0023  CALHOUN,,,,,,,,,,
USGS-335238089103601,-89.176536,33.878675,8030205,Yalobusha,L0010  CALHOUN,,,,,,,,,,
USGS-335248089102901,-89.17479,33.880113,8030205,Yalobusha,L0002  CALHOUN,,,,,,,,,,
USGS-335321089205401,-89.348407,33.88928,8030205,Yalobusha,K0004  CALHOUN,,,,,,,,,,
USGS-335401089133801,-89.223192,33.898806,8030205,Yalobusha,H0005  CALHOUN,,,,,,,,,,
USGS-335427089192101,-89.323092,33.906561,8030205,Yalobusha,G0009  CALHOUN,,,,,,,,,,
USGS-335527089463601,-89.776667,33.924167,8030205,Yalobusha,K0019  YALOBUSHA,,,,,,,,,,
USGS-335633089195801,-89.337289,33.939564,8030205,Yalobusha,G0002  CALHOUN,,,,,,,,,,
USGS-335743089394601,-89.658569,33.961792,8030205,Yalobusha,L0018  YALOBUSHA,,,,,,,,,,
USGS-335826089402301,-89.672867,33.974536,8030205,Yalobusha,L0019  YALOBUSHA,,,,,,,,,,
USGS-335906089205301,-89.348131,33.985111,8030205,Yalobusha,G0001  CALHOUN,,,,,,,,,,
USGS-335917089415401,-89.7068,33.993014,8030205,Yalobusha,G0023  YALOBUSHA,,,,,,,,,,
USGS-335930089113701,-89.193158,33.992683,8030205,Yalobusha,E0010  CALHOUN,,,,,,,,,,
USGS-335948089143001,-89.241738,33.996776,8030205,Yalobusha,E0033  CALHOUN,,,,,,,,,,
USGS-335951089205601,-89.347036,33.995342,8030205,Yalobusha,D0002  CALHOUN,,,,,,,,,,
USGS-340058089111401,-89.187291,34.016221,8030205,Yalobusha,E0005  CALHOUN,,,,,,,,,,
USGS-340121089212801,-89.353181,34.023328,8030205,Yalobusha,C0024  CALHOUN,,,,,,,,,,
USGS-340134089182401,-89.306667,34.026111,8030205,Yalobusha,D0009  CALHOUN,,,,,,,,,,
USGS-340230089182001,-89.304908,34.039058,8030205,Yalobusha,D0005  CALHOUN,,,,,,,,,,
USGS-340315089123201,-89.207253,34.055086,8030205,Yalobusha,E0009  CALHOUN,,,,,,,,,,
USGS-340508089230301,-89.384243,34.085666,8030205,Yalobusha,A0004  CALHOUN,,,,,,,,,,
USGS-340516089263901,-89.444245,34.087888,8030205,Yalobusha,A0003  CALHOUN,,,,,,,,,,
USGS-340517089204501,-89.345909,34.088165,8030205,Yalobusha,B0008  CALHOUN,,,,,,,,,,
USGS-340517089224501,-89.379243,34.088166,8030205,Yalobusha,A0015  CALHOUN,,,,,,,,,,
USGS-340700089231501,-89.385442,34.117314,8030205,Yalobusha,A0016  CALHOUN,,,,,,,,,,
USGS-340708089182801,-89.304133,34.118872,8030205,Yalobusha,B0012  CALHOUN,,,,,,,,,,
USGS-340800089032601,-89.057286,34.133441,8030205,Yalobusha,K0001  PONTOTOC,,,,,,,,,,
USGS-341236089080001,-89.133401,34.210107,8030205,Yalobusha,F0010  PONTOTOC,,,,,,,,,,
USGS-341320089045201,-89.081176,34.222329,8030205,Yalobusha,F0014  PONTOTOC,,,,,,,,,,
USGS-341359089062201,-89.101711,34.231033,8030205,Yalobusha,F0055  PONTOTOC,,,,,,,,,,
21MSWQ_WQX-07281977,-89.275806,33.837917,8030205,Yalobusha,YALOBUSHA RIVER,,,,,,,,,,
21MSWQ_WQX-111D25,-89.220186,33.761378,8030205,Yalobusha,BUCK CREEK,,,,,,,,,,
21MSWQ_WQX-111D26,-89.274104,34.047225,8030205,Yalobusha,SAVANNAH CREEK,,,,,,,,,,
21MSWQ_WQX-111D27,-89.368453,33.987559,8030205,Yalobusha,YODA CREEK,,,,,,,,,,
21MSWQ_WQX-111D28,-89.48544,33.95259,8030205,Yalobusha,HURRICANE CREEK,,,,,,,,,,
21MSWQ_WQX-111D29,-89.48878,33.95127,8030205,Yalobusha,DRY BAYOU,,,,,,,,,,
21MSWQ_WQX-112A17,-89.745123,33.946325,8030205,Yalobusha,OKACHICKIMA CREEK,,,,,,,,,,
21MSWQ_WQX-112C98,-89.506217,33.742556,8030205,Yalobusha,LITTLE HORSE PEN CREEK,,,,,,,,,,
21MSWQ_WQX-112D70,-89.173075,33.866214,8030205,Yalobusha,YALOBUSHA RIVER,,,,,,,,,,
21MSWQ_WQX-112D71,-89.177194,33.756972,8030205,Yalobusha,TOPASHAW CREEK,,,,,,,,,,
21MSWQ_WQX-112D73,-89.248039,33.786267,8030205,Yalobusha,BEAR CREEK,,,,,,,,,,
21MSWQ_WQX-806,-89.306139,33.737583,8030205,Yalobusha,SHUTISPEAR CREEK,,,,,,,,,,
21MSWQ_WQX-I120,-89.32475,34.071611,8030205,Yalobusha,COWPEN CREEK,,,,,,,,,,
21MSWQ_WQX-YZ055,-89.698,33.9615,8030205,Yalobusha,CYPRESS CREEK,,,,,,,,,,
21MSWQ_WQX-YZ069,-89.096111,34.053278,8030205,Yalobusha,SKUNA RIVER CANAL,,,,,,,,,,
21MSWQ_WQX-YZ071,-89.42675,34.015833,8030205,Yalobusha,PERSIMMON CREEK,,,,,,,,,,
21MSWQ_WQX-YZ073,-89.26075,34.053361,8030205,Yalobusha,LUCKNUCK CREEK,,,,,,,,,,
21MSWQ_WQX-YZ075,-89.344028,33.975361,8030205,Yalobusha,SKUNA RIVER CANAL,,,,,,,,,,
21MSWQ_WQX-YZ084,-89.968889,33.733056,8030205,Yalobusha,CANE CREEK,,,,,,,,,,
21MSWQ_WQX-YZ085,-89.95675,33.654083,8030205,Yalobusha,POTACOCOWA CREEK,,,,,,,,,,
21MSWQ_WQX-YZ089,-89.589333,33.772139,8030205,Yalobusha,BUTPUTTER CREEK,,,,,,,,,,
21MSWQ_WQX-YZ091,-89.173667,33.724694,8030205,Yalobusha,LITTLE TOPASHAW CREEK,,,,,,,,,,
21MSWQ_WQX-YZ093,-89.49648,33.74601,8030205,Yalobusha,HORSE PEN CREEK,,,,,,,,,,
21MSWQ_WQX-YZ206,-89.208667,33.768833,8030205,Yalobusha,TOPASHAW CREEK CANAL,,,,,,,,,,
21MSWQ_WQX-YZ400,-89.321917,34.04675,8030205,Yalobusha,COWPEN CREEK,,,,,,,,,,
21MSWQ_WQX-YZ402,-89.7055,33.685639,8030205,Yalobusha,LITTLE BOGUE,,,,,,,,,,
21MSWQ_WQX-YZ403,-89.703028,33.633444,8030205,Yalobusha,BIG BOGUE,,,,,,,,,,
21MSWQ_WQX-YZ553,-89.774806,33.739056,8030205,Yalobusha,BATUPAN BOGUE,,,,,,,,,,
21MSWQ_WQX-YZ608,-89.84175,33.481972,8030205,Yalobusha,BAILEY LAKE,,,,,,,,,,
NARS-OWW04440-0473,-89.47,33.85,8030205,Yalobusha,COLES CREEK,,,,,,,,,,
TDECWPC-JONES001.2DY,-89.3217,34.0481,8030205,Yalobusha,JONES CREEK,,,,,,,,,,
USGS-07287141,-89.936195,33.34068,8030206,Upper Yazoo,"ABIACA CREEK NR COILA, MS",,,,,,,,,,
USGS-07287142,-89.966751,33.31818,8030206,Upper Yazoo,"ABIACA CREEK NR BLACK HAWK, MS",,,,,,,,,,
USGS-07287144,-90.010918,33.31818,8030206,Upper Yazoo,"ABIACA CREEK AT BLACK HAWK, MS",,,,,,,,,,
USGS-07287330,-90.041751,33.226515,8030206,Upper Yazoo,"FANNEGUSHA CREEK NR ITUMA, MS",,,,,,,,,,
USGS-07287375,-89.956751,33.160405,8030206,Upper Yazoo,"BLACK CREEK AT BOWLING GREEN, MS",,,,,,,,,,
USGS-07287400,-90.053333,33.105278,8030206,Upper Yazoo,"BLACK CREEK AT LEXINGTON, MS",,,,,,,,,,
USGS-07287404,-90.173419,33.101794,8030206,Upper Yazoo,"HARLAND CREEK NR HOWARD, MS",,,,,,,,,,
USGS-07287574,-90.466205,32.665693,8030206,Upper Yazoo,"UNNAMED BRANCH NR OIL CITY, MS",,,,,,,,,,
USGS-07287580,-90.470371,32.724303,8030206,Upper Yazoo,"PERRY CREEK AT TINSLEY, MS",,,,,,,,,,
USGS-07287587,-90.462316,32.727358,8030206,Upper Yazoo,"THOMPSON CREEK AT TINSLEY, MS",,,,,,,,,,
USGS-324019090270301,-90.450927,32.672082,8030206,Upper Yazoo,Q0015  YAZOO,,,,,,,,,,
USGS-324208090230001,-90.383425,32.702359,8030206,Upper Yazoo,R0043  YAZOO,,,,,,,,,,
USGS-324246090300601,-90.501761,32.712914,8030206,Upper Yazoo,Q0027  YAZOO,,,,,,,,,,
USGS-324446090272401,-90.45676,32.746247,8030206,Upper Yazoo,Q0011  YAZOO,,,,,,,,,,
USGS-324518090285201,-90.351164,32.75495,8030206,Upper Yazoo,L0021  YAZOO,,,,,,,,,,
USGS-325042090202001,-90.342544,32.843214,8030206,Upper Yazoo,H0012  YAZOO,,,,,,,,,,
USGS-325141090092701,-90.157587,32.861522,8030206,Upper Yazoo,C0009  YAZOO,,,,,,,,,,
USGS-325217090122201,-90.206199,32.871521,8030206,Upper Yazoo,C0002  YAZOO,,,,,,,,,,
USGS-325246090173701,-90.2937,32.879577,8030206,Upper Yazoo,H0001  YAZOO,,,,,,,,,,
USGS-325307090093101,-90.158698,32.88541,8030206,Upper Yazoo,C0008  YAZOO,,,,,,,,,,
USGS-325315090163101,-90.275367,32.887632,8030206,Upper Yazoo,H0003  YAZOO,,,,,,,,,,
USGS-325331090110901,-90.191244,32.886694,8030206,Upper Yazoo,C0019  YAZOO,,,,,,,,,,
USGS-325646090085301,-90.149042,32.996522,8030206,Upper Yazoo,U0001  HOLMES,,,,,,,,,,
USGS-330003090121001,-90.209047,32.999,8030206,Upper Yazoo,U0005  HOLMES,,,,,,,,,,
USGS-330533090030801,-90.052307,33.092628,8030206,Upper Yazoo,R0002  HOLMES,,,,,,,,,,
USGS-330615090030601,-90.051752,33.104295,8030206,Upper Yazoo,L0004  HOLMES,,,,,,,,,,
USGS-330632090031401,-90.053974,33.109017,8030206,Upper Yazoo,L0045  HOLMES,,,,,,,,,,
USGS-330725090031401,-90.055683,33.111194,8030206,Upper Yazoo,L0001  HOLMES,,,,,,,,,,
USGS-330847090024201,-90.045864,33.145733,8030206,Upper Yazoo,L0009  HOLMES,,,,,,,,,,
USGS-331529090081901,-90.031275,33.257833,8030206,Upper Yazoo,D0006  HOLMES,,,,,,,,,,
USGS-331717089574901,-89.962814,33.288172,8030206,Upper Yazoo,M0036  CARROLL,,,,,,,,,,
USGS-331746090144201,-90.245088,33.020962,8030206,Upper Yazoo,A0019  HOLMES,,,,,,,,,,
USGS-331943090005101,-90.011717,33.327319,8030206,Upper Yazoo,M0003  CARROLL,,,,,,,,,,
USGS-332540089584001,-89.977861,33.427901,8030206,Upper Yazoo,H0017  CARROLL,,,,,,,,,,
USGS-332545089573601,-89.959364,33.429494,8030206,Upper Yazoo,H0025  CARROLL,,,,,,,,,,
USGS-332930089590501,-89.984805,33.491788,8030206,Upper Yazoo,E0046  CARROLL,,,,,,,,,,
21MSWQ_WQX-YZ067,-90.4725,32.7225,8030206,Upper Yazoo,PERRY CREEK,,,,,,,,,,
21MSWQ_WQX-YZ070,-90.133639,33.191639,8030206,Upper Yazoo,FANNEGUSHA CREEK,,,,,,,,,,
21MSWQ_WQX-YZ074,-90.039528,33.2265,8030206,Upper Yazoo,FANNEGUSHA CREEK,,,,,,,,,,
21MSWQ_WQX-YZ226,-90.460722,32.726278,8030206,Upper Yazoo,THOMPSON CREEK,,,,,,,,,,
21MSWQ_WQX-YZ460,-90.411083,32.790639,8030206,Upper Yazoo,SHORT CREEK,,,,,,,,,,
USGS-07266010,-88.996175,34.505935,8030201,Little Tallahatchie,"LITTLE TALLAHATCHIE RIVER AB NEW ALBANY, MS.",,,,,,,,,,
USGS-07266520,-89.013397,34.495102,8030201,Little Tallahatchie,"LITTLE TALLAHATCHIE RIVER AT NEW ALBANY, MS.",,,,,,,,,,
USGS-07266860,-89.056455,34.463713,8030201,Little Tallahatchie,"LITTLE TALLAHATCHIE RIVER NR INGOMAR, MS.",,,,,,,,,,
21MSWQ-YZ606,-89.239694,34.8185,8030201,Little Tallahatchie,SNOW LAKE,,,,,,,,,,
21MSWQ-YZ612,-89.336277,34.732,8030201,Little Tallahatchie,CHEWALLA LAKE,,,,,,,,,,
21MSWQ_WQX-07268000,-89.224333,34.482333,8030201,Little Tallahatchie,LITTLE TALLAHATCHIE RIVER,,,,,,,,,,
21MSWQ_WQX-111F06,-89.474856,34.577168,8030201,Little Tallahatchie,LITTLE SPRING CREEK,,,,,,,,,,
21MSWQ_WQX-112A21,-89.30753,34.640739,8030201,Little Tallahatchie,OAKLIMETER CREEK,,,,,,,,,,
21MSWQ_WQX-112B44,-89.064278,34.726047,8030201,Little Tallahatchie,TIPPAH RIVER,,,,,,,,,,
21MSWQ_WQX-112B80,-89.021825,34.738774,8030201,Little Tallahatchie,NORTH TIPPAH CREEK,,,,,,,,,,
21MSWQ_WQX-112C93,-88.998234,34.389046,8030201,Little Tallahatchie,SAND CREEK,,,,,,,,,,
21MSWQ_WQX-113A45,-89.03217,34.70914,8030201,Little Tallahatchie,SOUTH TIPPAH CREEK,,,,,,,,,,
21MSWQ_WQX-113A46,-88.991115,34.754277,8030201,Little Tallahatchie,MEDLOCK BRANCH,,,,,,,,,,
21MSWQ_WQX-113B66,-89.00271,34.77309,8030201,Little Tallahatchie,NORTH TIPPAH CREEK,,,,,,,,,,
21MSWQ_WQX-48,-89.201056,34.484639,8030201,Little Tallahatchie,MITCHELL CREEK,,,,,,,,,,
21MSWQ_WQX-TB639,-89.008167,34.288056,8030201,Little Tallahatchie,LYON CREEK,,,,,,,,,,
21MSWQ_WQX-YZ018,-89.717778,34.508333,8030201,Little Tallahatchie,GREASY CREEK,,,,,,,,,,
21MSWQ_WQX-YZ025,-89.490583,34.501444,8030201,Little Tallahatchie,GRAHAM MILL CREEK,,,,,,,,,,
21MSWQ_WQX-YZ026,-89.488861,34.512083,8030201,Little Tallahatchie,LEE CREEK,,,,,,,,,,
21MSWQ_WQX-YZ028,-89.136861,34.469,8030201,Little Tallahatchie,LOCKES CREEK,,,,,,,,,,
21MSWQ_WQX-YZ029,-89.186111,34.429861,8030201,Little Tallahatchie,LITTLE TALLAHATCHIE RIVER,,,,,,,,,,
21MSWQ_WQX-YZ030,-89.579,34.4025,8030201,Little Tallahatchie,BERRY BRANCH,,,,,,,,,,
21MSWQ_WQX-YZ031,-89.543556,34.457944,8030201,Little Tallahatchie,HURRICANE CREEK,,,,,,,,,,
21MSWQ_WQX-YZ032,-89.376139,34.408611,8030201,Little Tallahatchie,PUSKUS CREEK,,,,,,,,,,
21MSWQ_WQX-YZ033,-89.262972,34.475778,8030201,Little Tallahatchie,CYPRESS CREEK,,,,,,,,,,
21MSWQ_WQX-YZ034,-89.221944,34.480639,8030201,Little Tallahatchie,LITTLE TALLAHATCHIE RIVER,,,,,,,,,,
21MSWQ_WQX-YZ037,-88.893611,34.577667,8030201,Little Tallahatchie,LITTLE TALLAHATCHIE RIVER,,,,,,,,,,
21MSWQ_WQX-YZ038,-89.6565,34.35325,8030201,Little Tallahatchie,CLEAR CREEK,,,,,,,,,,
21MSWQ_WQX-YZ039,-89.676806,34.356194,8030201,Little Tallahatchie,HUDSON CREEK,,,,,,,,,,
21MSWQ_WQX-YZ040,-88.975111,34.523083,8030201,Little Tallahatchie,CANE CREEK,,,,,,,,,,
21MSWQ_WQX-YZ057,-89.098222,34.383222,8030201,Little Tallahatchie,LAPPATUBBY CREEK,,,,,,,,,,
21MSWQ_WQX-YZ061,-89.151889,34.337833,8030201,Little Tallahatchie,DUNCANS CREEK,,,,,,,,,,
21MSWQ_WQX-YZ064,-89.236556,34.328583,8030201,Little Tallahatchie,DUNCANS CREEK,,,,,,,,,,
21MSWQ_WQX-YZ119,-89.249361,34.525472,8030201,Little Tallahatchie,MILL CREEK,,,,,,,,,,
21MSWQ_WQX-YZ155,-89.65841,34.35526,8030201,Little Tallahatchie,CLEAR CREEK,,,,,,,,,,
21MSWQ_WQX-YZ156,-89.67756,34.35364,8030201,Little Tallahatchie,HUDSON CREEK,,,,,,,,,,
21MSWQ_WQX-YZ221,-89.019583,34.338639,8030201,Little Tallahatchie,CHERRY CREEK,,,,,,,,,,
21MSWQ_WQX-YZ391,-89.613639,34.570361,8030201,Little Tallahatchie,BLACKWATER CREEK,,,,,,,,,,
21MSWQ_WQX-YZ392,-89.759194,34.489139,8030201,Little Tallahatchie,NELSON CREEK,,,,,,,,,,
21MSWQ_WQX-YZ393,-89.742,34.499833,8030201,Little Tallahatchie,HOKE CREEK,,,,,,,,,,
21MSWQ_WQX-YZ407,-89.053917,34.465306,8030201,Little Tallahatchie,LITTLE TALLAHATCHIE RIVER,,,,,,,,,,
21MSWQ_WQX-YZ408,-89.00227,34.51916,8030201,Little Tallahatchie,JASPER CREEK,,,,,,,,,,
21MSWQ_WQX-YZ409,-89.010861,34.596611,8030201,Little Tallahatchie,JASPER CREEK,,,,,,,,,,
21MSWQ_WQX-YZ410,-88.995167,34.506139,8030201,Little Tallahatchie,LITTLE TALLAHATCHIE RIVER,,,,,,,,,,
21MSWQ_WQX-YZ606,-89.239694,34.8185,8030201,Little Tallahatchie,SNOW LAKE,,,,,,,,,,
21MSWQ_WQX-YZ612,-89.336278,34.732,8030201,Little Tallahatchie,CHEWALLA LAKE,,,,,,,,,,
USGS-07274000,-89.521389,34.273333,8030203,Yocona,"YOCONA RIVER NR OXFORD, MS",,,,,,,,,,
USGS-07274248,-89.623418,34.133444,8030203,Yocona,"OTOUCALOFA CREEK CANAL SE OF WATER VALLEY, MS.",,,,,,,,,,
USGS-07274251,-89.633333,34.1475,8030203,Yocona,"TOWN CREEK AT WATER VALLEY, MS",,,,,,,,,,
USGS-07274270,-89.696475,34.163165,8030203,Yocona,"OTOUCALOFA CREEK CANAL WEST OF WATER VALLEY, MS.",,,,,,,,,,
21MSWQ_WQX-112G38,-89.580542,34.266937,8030203,Yocona,TAYLOR CREEK,,,,,,,,,,
21MSWQ_WQX-112G39,-89.538297,34.270926,8030203,Yocona,MORRIS CREEK,,,,,,,,,,
21MSWQ_WQX-A0710016,-89.477806,34.3235,8030203,Yocona,FOURMILE BRANCH,,,,,,,,,,
21MSWQ_WQX-YZ045,-89.73925,34.227667,8030203,Yocona,BYNUM CREEK,,,,,,,,,,
21MSWQ_WQX-YZ062,-89.507889,34.288556,8030203,Yocona,BURNEY BRANCH,,,,,,,,,,
21MSWQ_WQX-YZ227,-89.635944,34.236722,8030203,Yocona,SPLINTER CREEK,,,,,,,,,,
21MSWQ_WQX-YZ241,-89.680167,34.235583,8030203,Yocona,DAVIS CREEK,,,,,,,,,,
21MSWQ_WQX-YZ394,-89.550528,34.251333,8030203,Yocona,COURTNEY CREEK,,,,,,,,,,
21MSWQ_WQX-YZ395,-89.566333,34.241639,8030203,Yocona,HUMPHREYS CREEK,,,,,,,,,,
USGS-344614089264701,-89.446583,34.769808,8030204,Coldwater,P0078  MARSHALL,,,,,,,,,,
USGS-345220089462301,-89.687933,34.871894,8030204,Coldwater,D0005  MARSHALL,,,,,,,,,,
21MSWQ_WQX-111C92,-89.89655,34.79546,8030204,Coldwater,SHORT FORK CREEK,,,,,,,,,,
21MSWQ_WQX-YZ007,-89.870417,34.921306,8030204,Coldwater,CAMP CREEK CANAL,,,,,,,,,,
21MSWQ_WQX-YZ010,-89.75774,34.80154,8030204,Coldwater,RED BANKS CREEK,,,,,,,,,,
21MSWQ_WQX-YZ015,-89.923083,34.632111,8030204,Coldwater,HICKAHALA CREEK,,,,,,,,,,
21MSWQ_WQX-YZ016,-89.819056,34.614139,8030204,Coldwater,JAMES WOLF CANAL,,,,,,,,,,
21MSWQ_WQX-YZ225,-90.021806,34.788889,8030204,Coldwater,MUSSACUNA CREEK,,,,,,,,,,
21MSWQ_WQX-YZ448,-89.809667,34.641417,8030204,Coldwater,HICKAHALA CREEK,,,,,,,,,,
USGS-07280250,-89.865089,34.026501,8030202,Tallahatchie,"TILLATOBA CREEK SOUTHEAST OF OAKLAND, MISS.",,,,,,,,,,
USGS-07280264,-89.916756,34.017891,8030202,Tallahatchie,"TILLATOBA CREEK NEAR TILLATOBA, MISS.",,,,,,,,,,
USGS-07280270,-89.953423,33.994558,8030202,Tallahatchie,"TILLATOBA CREEK BL OAKLAND, MS",,,,,,,,,,
USGS-07280275,-89.880088,33.933447,8030202,Tallahatchie,"DAVIS CREEK NEAR SCOBEY, MISS.",,,,,,,,,,
USGS-07280280,-89.920088,33.924003,8030202,Tallahatchie,"DAVIS CREEK NEAR TILLATOBA, MISS.",,,,,,,,,,
USGS-07280285,-89.944533,33.932058,8030202,Tallahatchie,"SOUTH FORK TILLATOBA CREEK SW OF TILLATOBA, MISS",,,,,,,,,,
USGS-07280290,-89.865088,33.975113,8030202,Tallahatchie,"SIMMONS CREEK NEAR TILLATOBA, MISS.",,,,,,,,,,
USGS-07280295,-89.902589,33.968169,8030202,Tallahatchie,"SIMMONS CREEK AT TILLATOBA, MISS.",,,,,,,,,,
USGS-07280330,-89.960089,33.959836,8030202,Tallahatchie,"SOUTH FORK TILLATOBA CREEK NEAR TILLATOBA, MISS.",,,,,,,,,,
USGS-07280340,-89.979256,33.978447,8030202,Tallahatchie,"SOUTH FORK TILLATOBA CREEK NR CHARLESTON, MS",,,,,,,,,,
USGS-07280365,-89.993978,33.989558,8030202,Tallahatchie,"TILLATOBA CREEK NR CHARLESTON, MISS.",,,,,,,,,,
USGS-07280400,-90.065,34,8030202,Tallahatchie,"TILLATOBA CREEK AT CHARLESTON, MS",,,,,,,,,,
21MSWQ_WQX-112B40,-89.951891,33.994256,8030202,Tallahatchie,TILLATOBA CREEK,,,,,,,,,,
21MSWQ_WQX-YZ049,-90.051972,34.036833,8030202,Tallahatchie,NORTH FORK TILLATOBA CREEK,,,,,,,,,,
USGS-07283000,-89.347778,33.973611,8030205,Yalobusha,"SKUNA RIVER AT BRUCE, MS",,,,,,,,,,
USGS-07285500,-89.809722,33.787778,8030205,Yalobusha,"YALOBUSHA RIVER AT GRENADA, MS",,,,,,,,,,
21MSWQ-YZ608,-89.84175,33.481972,8030205,Yalobusha,BAILEY LAKE,,,,,,,,,,
21MSWQ_WQX-07281977,-89.275806,33.837917,8030205,Yalobusha,YALOBUSHA RIVER,,,,,,,,,,
21MSWQ_WQX-111D25,-89.220186,33.761378,8030205,Yalobusha,BUCK CREEK,,,,,,,,,,
21MSWQ_WQX-111D26,-89.274104,34.047225,8030205,Yalobusha,SAVANNAH CREEK,,,,,,,,,,
21MSWQ_WQX-111D27,-89.368453,33.987559,8030205,Yalobusha,YODA CREEK,,,,,,,,,,
21MSWQ_WQX-111D28,-89.48544,33.95259,8030205,Yalobusha,HURRICANE CREEK,,,,,,,,,,
21MSWQ_WQX-111D29,-89.48878,33.95127,8030205,Yalobusha,DRY BAYOU,,,,,,,,,,
21MSWQ_WQX-112A17,-89.745123,33.946325,8030205,Yalobusha,OKACHICKIMA CREEK,,,,,,,,,,
21MSWQ_WQX-112C98,-89.506217,33.742556,8030205,Yalobusha,LITTLE HORSE PEN CREEK,,,,,,,,,,
21MSWQ_WQX-112D70,-89.173075,33.866214,8030205,Yalobusha,YALOBUSHA RIVER,,,,,,,,,,
21MSWQ_WQX-112D71,-89.177194,33.756972,8030205,Yalobusha,TOPASHAW CREEK,,,,,,,,,,
21MSWQ_WQX-112D73,-89.248039,33.786267,8030205,Yalobusha,BEAR CREEK,,,,,,,,,,
21MSWQ_WQX-806,-89.306139,33.737583,8030205,Yalobusha,SHUTISPEAR CREEK,,,,,,,,,,
21MSWQ_WQX-I120,-89.32475,34.071611,8030205,Yalobusha,COWPEN CREEK,,,,,,,,,,
21MSWQ_WQX-YZ055,-89.698,33.9615,8030205,Yalobusha,CYPRESS CREEK,,,,,,,,,,
21MSWQ_WQX-YZ069,-89.096111,34.053278,8030205,Yalobusha,SKUNA RIVER CANAL,,,,,,,,,,
21MSWQ_WQX-YZ071,-89.42675,34.015833,8030205,Yalobusha,PERSIMMON CREEK,,,,,,,,,,
21MSWQ_WQX-YZ073,-89.26075,34.053361,8030205,Yalobusha,LUCKNUCK CREEK,,,,,,,,,,
21MSWQ_WQX-YZ075,-89.344028,33.975361,8030205,Yalobusha,SKUNA RIVER CANAL,,,,,,,,,,
21MSWQ_WQX-YZ084,-89.968889,33.733056,8030205,Yalobusha,CANE CREEK,,,,,,,,,,
21MSWQ_WQX-YZ085,-89.95675,33.654083,8030205,Yalobusha,POTACOCOWA CREEK,,,,,,,,,,
21MSWQ_WQX-YZ089,-89.589333,33.772139,8030205,Yalobusha,BUTPUTTER CREEK,,,,,,,,,,
21MSWQ_WQX-YZ091,-89.173667,33.724694,8030205,Yalobusha,LITTLE TOPASHAW CREEK,,,,,,,,,,
21MSWQ_WQX-YZ093,-89.49648,33.74601,8030205,Yalobusha,HORSE PEN CREEK,,,,,,,,,,
21MSWQ_WQX-YZ206,-89.208667,33.768833,8030205,Yalobusha,TOPASHAW CREEK CANAL,,,,,,,,,,
21MSWQ_WQX-YZ400,-89.321917,34.04675,8030205,Yalobusha,COWPEN CREEK,,,,,,,,,,
21MSWQ_WQX-YZ402,-89.7055,33.685639,8030205,Yalobusha,LITTLE BOGUE,,,,,,,,,,
21MSWQ_WQX-YZ403,-89.703028,33.633444,8030205,Yalobusha,BIG BOGUE,,,,,,,,,,
21MSWQ_WQX-YZ553,-89.774806,33.739056,8030205,Yalobusha,BATUPAN BOGUE,,,,,,,,,,
21MSWQ_WQX-YZ608,-89.84175,33.481972,8030205,Yalobusha,BAILEY LAKE,,,,,,,,,,
21MSWQ_WQX-YZ067,-90.4725,32.7225,8030206,Upper Yazoo,PERRY CREEK,,,,,,,,,,
21MSWQ_WQX-YZ070,-90.133639,33.191639,8030206,Upper Yazoo,FANNEGUSHA CREEK,,,,,,,,,,
21MSWQ_WQX-YZ074,-90.039528,33.2265,8030206,Upper Yazoo,FANNEGUSHA CREEK,,,,,,,,,,
21MSWQ_WQX-YZ226,-90.460722,32.726278,8030206,Upper Yazoo,THOMPSON CREEK,,,,,,,,,,
21MSWQ_WQX-YZ460,-90.411083,32.790639,8030206,Upper Yazoo,SHORT CREEK,,,,,,,,,,
